,City,Country,Latitude,Longitude,Temperature,Humidity,Cloudiness,Wind Speed
0,Tasiilaq,GL,65.61,-37.64,8.6,55,0,3.67
1,Wukari,NG,7.85,9.78,77.85,50,68,4.61
2,Lüderitz,NA,-26.65,15.16,59.72,88,80,11.03
3,Avarua,CK,-21.21,-159.78,84.2,70,0,14.99
4,Bambous Virieux,MU,-20.34,57.76,75.58,73,75,11.41
5,Neuquén,AR,-38.95,-68.06,80.6,42,0,7.87
6,Loa Janan,ID,-0.58,117.09,86.23,70,83,1.43
7,Ushuaia,AR,-54.8,-68.3,44.6,93,90,6.93
8,Kapaa,US,22.08,-159.32,80.73,69,75,10.29
9,Carnarvon,AU,-24.87,113.63,73.4,83,75,17.22
10,Nueva Gerona,CU,21.88,-82.8,68.79,66,22,12.55
11,Barrow,US,71.29,-156.79,-5.8,70,90,14.99
12,Lebu,CL,-37.62,-73.65,54.28,82,0,12.39
13,Punta Arenas,CL,-53.15,-70.92,50.0,76,100,2.24
14,Puerto Ayora,EC,-0.74,-90.35,71.01,96,17,1.99
15,Rikitea,PF,-23.12,-134.97,77.76,79,36,15.43
16,Albany,US,42.6,-73.97,32.85,73,86,3.29
17,Yellowknife,CA,62.46,-114.35,3.2,84,90,3.36
18,Hong Kong,HK,22.29,114.16,64.62,76,48,7.0
19,Plastun,RU,44.76,136.29,24.55,83,0,4.43
20,Busselton,AU,-33.65,115.33,78.62,45,100,5.99
21,Pisco,PE,-13.7,-76.22,66.11,82,0,16.11
22,Atuona,PF,-9.8,-139.03,79.14,73,0,17.81
23,Northam,GB,51.03,-4.22,47.98,95,100,11.99
24,New Norfolk,AU,-42.78,147.06,56.5,48,87,3.0
25,Faanui,PF,-16.48,-151.75,78.8,79,100,15.64
26,Vaini,TO,-21.2,-175.2,84.2,74,20,14.99
27,Arraial do Cabo,BR,-22.97,-42.03,75.2,94,75,3.36
28,Mazagão,BR,-0.12,-51.29,77.0,100,40,1.12
29,Kamenka,RU,51.32,42.77,14.99,90,0,6.67
30,Bogandé,BF,12.97,-0.14,76.23,19,3,7.83
31,Ribeira Grande,PT,38.52,-28.7,63.25,90,100,16.93
32,Tuktoyaktuk,CA,69.45,-133.04,-20.2,82,75,2.24
33,Saint George,US,37.1,-113.58,53.42,13,1,2.17
34,Omsukchan,RU,62.53,155.8,4.55,91,100,1.72
35,Mataura,NZ,-46.19,168.86,63.0,73,95,14.0
36,Marshall,US,34.38,-86.33,47.95,61,1,5.82
37,Bluff,NZ,-46.6,168.33,63.0,73,37,14.0
38,Aksarka,RU,66.56,67.8,11.23,91,0,7.27
39,Lorengau,PG,-2.02,147.27,87.39,59,68,5.17
40,Hermanus,ZA,-34.42,19.23,57.99,95,0,3.47
41,Narsaq,GL,60.92,-46.05,30.2,30,0,21.92
42,Cidreira,BR,-30.18,-50.21,68.61,84,1,7.16
43,Yerbogachën,RU,61.28,108.01,-17.45,87,100,3.44
44,Bredasdorp,ZA,-34.53,20.04,59.0,87,0,3.36
45,Butaritari,KI,3.07,172.79,82.2,77,31,10.89
46,Burē,ET,10.7,37.07,56.75,54,2,3.83
47,Şile,TR,41.18,29.61,52.0,68,100,1.99
48,Hokitika,NZ,-42.72,170.97,62.24,73,0,14.65
49,Olafsvik,IS,64.89,-23.71,34.38,92,100,33.71
50,Clyde River,CA,70.47,-68.59,10.4,92,90,2.24
51,Sakakah,SA,29.97,40.21,51.8,66,0,3.36
52,San Cristobal,VE,7.77,-72.22,65.64,92,25,0.98
53,Hithadhoo,MV,-0.6,73.08,82.02,69,100,9.19
54,Qaanaaq,GL,77.48,-69.36,3.27,88,100,3.53
55,Voi,KE,-3.39,38.56,70.09,90,100,1.95
56,Castro,BR,-24.79,-50.01,58.39,86,84,3.58
57,Belmonte,BR,-15.86,-38.88,77.0,78,0,8.05
58,Jalu,LY,29.03,21.55,57.67,38,0,11.74
59,Vestmanna,FO,62.16,-7.17,44.6,93,100,16.11
60,Port Hardy,CA,50.7,-127.42,43.5,93,75,0.58
61,Voh,NC,-20.97,164.7,85.89,65,72,6.87
62,Tanabi,BR,-20.63,-49.65,73.4,64,20,2.24
63,Norman Wells,CA,65.28,-126.83,5.0,84,90,14.99
64,Fukuechō,JP,32.69,128.84,53.6,66,0,6.93
65,Hilo,US,19.73,-155.09,76.8,58,1,10.29
66,Pevek,RU,69.7,170.31,-8.12,90,0,2.46
67,Vostok,RU,46.49,135.88,12.92,92,81,3.47
68,Husavik,IS,66.04,-17.34,33.8,100,90,6.93
69,Vila Franca do Campo,PT,37.72,-25.43,60.8,87,40,11.41
70,Cherskiy,RU,68.75,161.3,-4.72,86,100,4.45
71,Innisfail,AU,-17.53,146.03,83.77,68,28,8.3
72,Khatanga,RU,71.97,102.5,-31.9,85,60,1.83
73,Garmsār,IR,35.22,52.34,41.92,67,0,0.74
74,Chui,UY,-33.7,-53.46,63.57,91,0,7.87
75,Saskylakh,RU,71.92,114.08,-17.86,86,100,15.21
76,Hobart,AU,-42.88,147.33,58.89,44,75,20.8
77,Partenit,UA,44.58,34.34,48.45,86,79,4.12
78,Grindavik,IS,63.84,-22.43,35.6,95,90,25.28
79,Lodja,CD,-3.48,23.43,67.91,98,100,1.43
80,Cândido Mendes,BR,-1.45,-45.72,76.32,90,100,3.78
81,Saint-Philippe,RE,-21.36,55.77,70.07,78,0,8.05
82,Leopoldina,BR,-21.53,-42.64,72.0,99,100,1.48
83,Srednekolymsk,RU,67.45,153.68,-23.82,85,87,4.03
84,Kaitangata,NZ,-46.28,169.85,61.0,72,53,11.01
85,Alugan,PH,12.22,125.48,83.28,77,88,7.96
86,Cheyenne,US,41.14,-104.82,51.96,4,1,19.75
87,Longyearbyen,SJ,78.22,15.64,26.6,79,75,11.41
88,Torbay,CA,47.67,-52.73,37.11,93,75,17.22
89,Praia,CV,14.92,-23.51,73.4,69,75,16.11
90,Tuatapere,NZ,-46.13,167.68,63.0,73,85,14.0
91,Jasper,US,37.2,-94.35,50.9,43,1,5.19
92,Richards Bay,ZA,-28.78,32.04,71.08,88,87,5.12
93,Cape Town,ZA,-33.93,18.42,60.78,88,0,9.17
94,Severo-Kuril'sk,RU,50.68,156.12,27.07,87,85,23.02
95,Urucará,BR,-2.54,-57.76,77.63,80,100,1.14
96,Port Hawkesbury,CA,45.62,-61.35,31.71,89,75,6.93
97,Parrita,CR,9.52,-84.32,66.52,82,75,12.75
98,Robertsport,LR,6.75,-11.37,80.26,83,0,6.6
99,Paamiut,GL,61.99,-49.67,27.12,74,0,5.12
100,Sajanan,TN,37.06,9.24,45.45,93,40,10.29
101,Saint Paul Harbor,US,57.79,-152.41,32.0,90,1,9.17
102,George Town,MY,5.41,100.34,77.63,88,20,6.42
103,Jamestown,US,42.1,-79.24,35.19,94,90,8.05
104,Kabwe,ZM,-14.45,28.45,65.59,94,100,5.08
105,Normandin,CA,48.83,-72.53,21.2,92,100,2.24
106,Guerrero Negro,MX,27.98,-114.06,68.11,61,25,7.9
107,Hasaki,JP,35.73,140.83,45.16,93,75,12.75
108,Puerto Palomas,MX,31.77,-107.62,62.6,16,1,3.36
109,Pangnirtung,CA,66.15,-65.71,15.69,92,100,2.39
110,Eenhana,NA,-17.47,16.33,70.18,35,38,4.81
111,Arrecife,ES,28.96,-13.55,66.2,72,40,12.75
112,Luganville,VU,-15.53,167.17,80.6,88,75,6.93
113,Upernavik,GL,72.79,-56.15,23.4,96,100,8.43
114,Marawi,PH,8.0,124.29,82.0,77,0,4.0
115,Tiksi,RU,71.69,128.87,-19.34,87,100,11.27
116,Iroquois,US,40.75,-87.83,41.76,70,0,3.49
117,Lodwar,KE,3.12,35.6,80.83,45,21,7.4
118,Batagay-Alyta,RU,67.8,130.41,-26.77,79,97,2.39
119,Colac,AU,-38.33,143.58,52.34,62,0,1.99
120,Turukhansk,RU,65.82,87.98,-13.95,89,100,6.22
121,Kavieng,PG,-2.57,150.8,83.71,71,100,5.01
122,Airai,TL,-8.93,125.41,74.28,68,100,2.21
123,East London,ZA,-33.02,27.91,69.31,84,99,11.07
124,Bengkulu,ID,-3.8,102.27,77.65,83,59,3.71
125,Okhotsk,RU,59.38,143.3,-7.24,90,58,10.02
126,Leshukonskoye,RU,64.9,45.76,20.88,91,0,8.77
127,Pachperwa,IN,27.52,82.65,59.11,73,0,1.95
128,Mahébourg,MU,-20.41,57.7,77.0,73,75,11.41
129,Byron Bay,AU,-28.65,153.62,80.64,61,40,14.99
130,Hamilton,US,39.18,-84.53,41.47,84,1,3.71
131,Bandarbeyla,SO,9.49,50.81,74.93,79,1,14.76
132,Mareeba,AU,-17.0,145.43,82.17,78,75,6.93
133,Nioro,GM,13.35,-15.75,73.74,25,2,7.05
134,Gboko,NG,7.32,9.0,79.12,70,100,13.71
135,Lompoc,US,34.64,-120.46,59.14,38,90,8.05
136,Hofn,IS,64.25,-15.21,42.04,91,100,14.97
137,Puerto Escondido,MX,15.85,-97.07,80.6,78,40,4.7
138,Fortuna,US,40.6,-124.16,52.39,84,75,5.39
139,Apsheronsk,RU,44.46,39.73,38.25,85,55,2.21
140,Sur,OM,22.57,59.53,70.11,72,0,5.44
141,Carutapera,BR,-1.2,-46.02,78.71,83,100,6.82
142,Lagoa,PT,39.05,-27.98,63.01,91,100,22.91
143,Edson,CA,53.58,-116.44,28.4,63,40,4.07
144,Mount Gambier,AU,-37.83,140.77,62.6,48,40,20.8
145,Burnie,AU,-41.07,145.92,57.99,50,42,15.99
146,Santa Fe,AR,-31.63,-60.7,79.0,60,0,1.01
147,Mount Isa,AU,-20.73,139.5,93.2,9,90,12.75
148,Panalingaan,PH,8.78,117.42,85.37,66,76,3.47
149,Teseney,ER,15.11,36.66,67.69,71,0,9.6
150,Port Alfred,ZA,-33.59,26.89,65.93,82,100,3.27
151,Sayyan,YE,15.17,44.32,42.01,65,0,2.82
152,Zhangaözen,KZ,43.3,52.8,20.34,94,2,7.25
153,Kahului,US,20.89,-156.47,79.74,48,40,10.29
154,Cururupu,BR,-1.83,-44.87,77.52,87,100,4.79
155,Deoli,IN,25.75,75.38,59.74,48,0,3.49
156,Isangel,VU,-19.55,169.27,83.7,70,95,16.44
157,Saldanha,ZA,-33.01,17.94,60.8,82,0,3.36
158,Dikson,RU,73.51,80.55,-11.65,86,2,2.62
159,Lichinga,MZ,-13.31,35.24,63.03,94,100,5.55
160,Coquimbo,CL,-29.95,-71.34,57.2,87,90,5.82
161,Bethel,US,41.37,-73.41,32.52,96,75,5.82
162,Mar del Plata,AR,-38.0,-57.56,63.05,68,0,5.82
163,Wote,KE,-1.78,37.63,62.4,93,28,2.39
164,Rome,US,43.21,-75.46,34.68,86,90,3.36
165,Nuuk,GL,64.18,-51.72,21.2,67,51,14.99
166,Briançon,FR,44.9,6.65,35.35,37,0,3.0
167,Ostrovnoy,RU,68.05,39.51,24.57,94,50,26.84
168,Comodoro Rivadavia,AR,-45.87,-67.5,60.8,55,0,9.17
169,Cap Malheureux,MU,-19.98,57.61,73.99,82,39,7.0
170,Salym,RU,60.06,71.48,15.39,96,100,9.73
171,Shingū,JP,33.73,135.98,55.4,62,40,5.82
172,Kaeo,NZ,-35.1,173.78,77.0,61,0,15.99
173,Sola,VU,-13.88,167.55,82.67,81,100,12.44
174,São João da Barra,BR,-21.64,-41.05,73.17,91,100,4.7
175,Wau,SS,7.7,28.0,73.33,23,17,2.46
176,Okha,RU,53.57,142.95,10.56,89,100,3.38
177,Lima,PE,-12.04,-77.03,66.6,82,75,17.22
178,Broome,US,42.25,-75.83,31.89,92,90,9.17
179,Yangi Marg`ilon,UZ,40.43,71.72,33.8,80,90,2.24
180,Russell,US,32.35,-85.2,51.67,75,1,3.67
181,Antofagasta,CL,-23.65,-70.4,62.6,77,75,12.75
182,Eha Amufu,NG,6.66,7.76,77.25,81,100,5.28
183,Waipawa,NZ,-41.41,175.52,64.65,82,100,4.7
184,Thinadhoo,MV,0.53,72.93,81.99,66,100,6.06
185,Centerville,US,39.63,-84.16,39.99,88,1,5.82
186,Petropavlovsk-Kamchatskiy,RU,53.05,158.65,17.6,57,0,8.95
187,La Ronge,CA,55.1,-105.28,27.5,86,70,6.93
188,San Vicente,AR,-26.62,-54.13,68.11,56,0,4.0
189,Hirara,JP,24.8,125.28,71.6,100,75,11.41
190,Marabba,SD,12.35,32.18,73.6,31,16,8.81
191,Kidal,ML,18.44,1.41,69.37,24,0,9.08
192,Road Town,VG,18.42,-64.62,77.63,88,75,2.24
193,Najrān,SA,17.49,44.13,53.6,50,0,1.32
194,Iqaluit,CA,63.75,-68.51,21.2,79,75,12.75
195,Nikolskoye,RU,59.7,30.79,19.89,78,0,6.71
196,Sept-Îles,CA,50.2,-66.38,21.51,79,97,3.36
197,Sechura,PE,-5.56,-80.82,70.38,74,39,14.32
198,Thompson,CA,55.74,-97.86,21.2,92,90,6.93
199,Haines Junction,CA,60.75,-137.51,1.4,84,100,2.24
200,Matucana,PE,-11.85,-76.4,61.59,61,85,3.98
201,Waingapu,ID,-9.66,120.26,83.14,76,100,11.23
202,Souris,CA,49.62,-100.26,35.94,93,90,6.93
203,Manado,ID,1.49,124.85,84.2,79,20,2.24
204,Nanortalik,GL,60.14,-45.24,27.95,79,0,6.15
205,Meulaboh,ID,4.14,96.13,78.67,84,64,4.68
206,Sungai Raya,ID,0.7,108.9,83.44,76,94,8.7
207,Kondopoga,RU,62.21,34.26,10.4,92,7,2.24
208,Hirtshals,DK,57.59,9.96,39.0,96,100,4.0
209,Esperance,AU,-33.87,121.9,69.8,56,100,17.22
210,Coruripe,BR,-10.13,-36.18,77.67,79,69,14.65
211,Lavrentiya,RU,65.58,-171.0,8.01,88,0,7.45
212,Pindi Bhattian,PK,31.9,73.27,55.0,70,0,3.42
213,Kamakwie,SL,9.5,-12.23,75.2,86,37,3.0
214,Kon Tum,VN,14.35,108.0,73.15,72,72,2.55
215,Mangai,CD,-4.05,19.53,70.32,96,100,2.01
216,Kutum,SD,14.2,24.67,60.57,31,0,8.05
217,Bingöl,TR,38.88,40.49,33.75,87,0,5.19
218,Mackenzie,CA,55.3,-123.17,30.2,92,90,10.29
219,Faya,SA,18.39,42.45,49.1,45,0,1.19
220,Taoudenni,ML,22.68,-3.98,58.78,30,0,11.25
221,Itarema,BR,-2.92,-39.92,79.47,77,100,14.0
222,Sant Julià de Loria,AD,42.46,1.48,29.66,61,100,5.99
223,South Lake Tahoe,US,38.93,-119.98,43.14,56,1,2.82
224,Nānākuli,US,21.39,-158.15,80.04,58,90,10.29
225,Talnakh,RU,69.49,88.4,-14.8,68,0,6.71
226,Jiayuguan City,CN,39.82,98.3,16.09,86,99,3.83
227,Shiyan,CN,32.65,110.78,43.43,65,0,1.97
228,Oranjemund,NA,-28.55,16.43,61.0,92,22,4.61
229,Broken Hill,AU,-31.95,141.43,75.2,33,24,16.11
230,Lerwick,GB,60.15,-1.15,46.4,65,64,25.28
231,Ilulissat,GL,69.22,-51.1,21.2,41,100,6.93
232,Mayna,RU,54.11,47.62,11.93,91,0,3.87
233,Souillac,MU,-20.52,57.52,77.0,73,75,11.41
234,Maragogi,BR,-9.01,-35.22,76.95,79,91,9.35
235,Kalmunai,LK,7.42,81.82,76.89,85,100,8.63
236,Fare,PF,-16.7,-151.02,80.82,75,100,17.58
237,Provideniya,RU,64.38,-173.3,5.0,71,20,6.71
238,Salinópolis,BR,-0.61,-47.36,79.68,82,100,12.59
239,Nelson Bay,AU,-32.72,152.15,75.27,53,0,5.82
240,Wonthaggi,AU,-38.6,145.59,62.33,57,0,13.2
241,Estelle,US,29.85,-90.11,59.67,71,20,5.82
242,Port Lincoln,AU,-34.73,135.87,64.53,64,88,20.07
243,Vrede,ZA,-27.43,29.17,60.62,71,54,2.46
244,Constitución,CL,-35.33,-72.42,55.09,71,0,16.13
245,Cobija,BO,-11.03,-68.77,77.29,80,95,1.88
246,Mogadishu,SO,2.04,45.34,77.97,78,4,18.88
247,Atbasar,KZ,51.8,68.33,4.71,94,61,3.65
248,Half Moon Bay,US,37.46,-122.43,58.19,58,1,9.89
249,Mabini,PH,15.6,120.98,78.8,83,75,4.7
250,Iguape,BR,-24.71,-47.56,73.89,85,75,4.79
251,Faro,PT,37.02,-7.93,59.0,82,20,13.87
252,Vicuña,CL,-30.03,-70.71,57.2,87,90,5.82
253,Katangli,RU,51.71,143.23,13.5,92,100,2.57
254,San Patricio,US,28.02,-97.52,63.3,42,75,10.29
255,Saint-Joseph,RE,-21.37,55.62,73.4,78,0,8.05
256,Mońki,PL,53.41,22.8,26.49,85,98,5.01
257,San Policarpo,PH,12.18,125.51,83.41,76,96,8.19
258,Atar,MR,20.52,-13.05,61.38,29,100,10.54
259,Erzin,TR,36.96,36.2,43.03,100,20,2.24
260,Chara,RU,56.91,118.26,-0.71,87,100,3.0
261,Pokhara,NP,28.23,83.98,55.09,47,0,3.22
262,Llanes,ES,43.42,-4.75,54.12,67,100,20.54
263,Geraldton,AU,-28.77,114.6,75.2,69,100,2.24
264,Sakaiminato,JP,35.55,133.23,44.94,87,75,3.36
265,Baghdad,IQ,33.34,44.4,50.0,76,0,3.36
266,Manama,BH,26.22,50.58,65.66,72,0,9.17
267,Morro Bay,US,35.37,-120.85,62.53,25,1,4.7
268,Nome,US,64.5,-165.41,8.6,71,75,10.29
269,Yetkul',RU,54.82,61.59,5.0,84,0,4.47
270,Baiyin,CN,36.56,104.21,21.31,72,100,2.24
271,Melilla,ES,35.29,-2.94,59.5,77,0,5.82
272,Batticaloa,LK,7.71,81.69,77.54,82,100,8.7
273,Damāvand,IR,35.72,52.06,35.6,74,2,4.7
274,Praia da Vitória,PT,38.73,-27.07,62.78,88,20,10.94
275,Tura,IN,25.52,90.22,59.56,75,0,2.19
276,Aklavik,CA,68.22,-135.01,-4.0,83,75,3.36
277,Tahoua,NE,14.89,5.27,75.2,17,0,2.24
278,Charters Towers,AU,-20.1,146.27,87.49,45,100,13.18
279,Fairbanks,US,64.84,-147.72,8.29,77,75,2.3
280,Bunumbu,SL,8.17,-10.87,72.1,97,13,0.94
281,Emerald,AU,-23.53,148.17,86.0,48,75,13.87
282,Flinders,AU,-34.58,150.86,71.01,82,38,5.01
283,Pacific Grove,US,36.62,-121.92,54.88,71,1,4.7
284,Te Anau,NZ,-45.42,167.72,61.47,61,84,6.73
285,Rio Grande,BR,-32.03,-52.1,66.63,86,0,9.15
286,Maniitsoq,GL,65.42,-52.9,23.59,82,100,1.19
287,Moose Factory,CA,51.26,-80.61,28.4,92,90,4.7
288,Novovarshavka,RU,54.17,74.69,8.13,96,84,9.13
289,Baykit,RU,61.67,96.37,-23.49,81,99,1.43
290,Los Llanos de Aridane,ES,28.66,-17.92,61.12,82,75,16.11
291,Caravelas,BR,-17.71,-39.25,77.59,80,0,11.65
292,Shimoda,JP,34.67,138.95,51.91,87,75,14.99
293,San Luis,AR,-33.3,-66.34,80.78,32,0,12.08
294,Noumea,NC,-22.28,166.46,87.3,58,9,9.17
295,Lubango,AO,-14.92,13.49,60.84,33,99,1.54
296,Antalaha,MG,-14.9,50.28,73.56,84,5,4.47
297,Chennai,IN,13.09,80.28,75.2,94,40,2.24
298,Riyadh,SA,24.69,46.72,53.6,58,0,2.24
299,Kudahuvadhoo,MV,2.67,72.89,82.35,71,97,6.24
300,Mossamedes,AO,-15.2,12.15,65.21,78,93,8.81
301,Manta,EC,-0.95,-80.73,75.2,73,40,5.82
302,Ürümqi,CN,43.8,87.6,-2.2,84,20,2.24
303,Kemin,KG,42.78,75.69,22.15,82,99,1.95
304,Deputatsky,RU,69.3,139.9,-33.32,84,36,1.97
305,Yangambi,CD,0.81,24.43,68.65,97,90,2.21
306,Maţāy,EG,28.42,30.78,53.2,49,0,6.6
307,Teguise,ES,29.06,-13.56,66.2,72,40,12.75
308,Gīdam,IN,18.98,81.4,59.04,60,0,1.95
309,Sinnamary,GF,5.38,-52.95,78.17,86,45,8.97
310,Kalāleh,IR,37.38,55.49,42.8,100,90,4.54
311,Margate,GB,51.38,1.39,42.87,87,100,5.01
312,Yabēlo,ET,4.88,38.08,56.19,49,92,6.64
313,Le Port,RE,-20.94,55.29,67.39,78,40,17.22
314,Ichhāwar,IN,23.02,77.02,60.8,77,40,3.4
315,Wattegama,LK,6.8,81.48,73.4,100,40,3.36
316,Puri,IN,19.8,85.85,69.8,94,40,5.17
317,Barbosa Ferraz,BR,-24.03,-52.01,71.24,57,37,1.74
318,Kizema,RU,61.11,44.83,17.28,90,0,4.85
319,Nizwá,OM,22.93,57.53,56.35,84,4,2.15
320,Ancud,CL,-41.87,-73.82,59.0,67,0,3.36
321,Hachinohe,JP,40.5,141.5,39.2,55,75,9.17
322,Yaan,NG,7.38,8.57,79.32,68,100,9.73
323,Huanta,PE,-12.93,-74.25,60.71,65,99,4.65
324,Honiara,SB,-9.43,159.95,87.8,70,20,8.05
325,Edd,ER,13.93,41.69,76.87,66,0,4.59
326,Tiznit Province,MA,29.58,-9.5,56.8,43,0,2.15
327,Prince Rupert,CA,54.32,-130.32,40.32,86,20,6.93
328,Adrar,MR,20.5,-10.07,57.7,30,83,9.44
329,Xi'an,CN,34.26,108.93,33.3,92,64,2.24
330,Fairlie,GB,55.76,-4.86,40.28,86,100,4.7
331,Cockburn Town,TC,21.46,-71.14,75.2,64,75,5.82
332,Cabo San Lucas,MX,22.89,-109.91,77.83,50,90,2.04
333,Touros,BR,-5.2,-35.46,77.0,83,20,5.82
334,Riachão,BR,-7.36,-46.62,72.82,86,100,4.03
335,Natal,BR,-5.79,-35.21,77.94,83,40,8.05
336,Ponta do Sol,PT,32.67,-17.1,57.76,77,40,5.82
337,Makakilo City,US,21.35,-158.09,80.24,58,90,10.29
338,Poso,ID,-1.4,120.75,80.58,70,100,6.06
339,Lanigan,CA,51.85,-105.03,32.0,96,99,13.87
340,Tobol'sk,RU,58.2,68.27,11.71,97,96,7.72
341,Yulara,AU,-25.24,130.99,64.4,93,90,9.17
342,Torbat-e Jām,IR,35.24,60.62,34.41,86,50,1.57
343,Kabala,SL,9.58,-11.55,70.65,90,1,2.51
344,Mattawa,US,46.74,-119.9,37.92,93,1,10.63
345,Ballina,AU,-28.87,153.57,79.65,61,40,14.99
346,Bāniyās,SY,35.18,35.95,51.8,93,0,4.7
347,Faruka,PK,31.89,72.41,54.45,70,0,3.8
348,Taltal,CL,-25.4,-70.48,59.77,76,22,0.72
349,Namatanai,PG,-3.67,152.43,83.61,74,95,6.29
350,Diedorf,DE,48.35,10.77,32.97,99,99,6.93
351,Dormidontovka,RU,47.77,134.91,15.76,88,97,4.74
352,Vila Velha,BR,-20.33,-40.29,75.2,94,75,4.7
353,Auki,SB,-8.77,160.7,85.21,68,88,3.87
354,Warrington,GB,53.39,-2.58,41.86,87,90,13.87
355,Kirakira,SB,-10.45,161.92,84.09,72,45,3.56
356,Yar-Sale,RU,66.83,70.83,8.89,94,32,15.1
357,Yamada,JP,39.47,141.95,46.44,57,100,9.13
358,Vao,NC,-22.67,167.48,78.35,83,95,14.2
359,College,US,64.86,-147.8,8.19,77,75,2.62
360,Tingo María,PE,-9.29,-76.01,71.46,84,56,1.72
361,Ixtapa,MX,20.7,-105.2,77.9,83,20,5.82
362,Rondonópolis,BR,-16.47,-54.64,74.75,83,100,4.03
363,St. George's,GD,12.06,-61.75,78.8,78,20,9.17
364,Cayenne,GF,4.93,-52.33,80.6,94,31,8.79
365,Tambura,SS,5.6,27.47,74.14,62,0,0.72
366,Bukama,CD,-9.2,25.85,69.82,95,100,0.74
367,Marzuq,YE,14.4,46.47,51.42,51,0,3.4
368,Verkhoyansk,RU,67.54,133.38,-40.86,75,39,1.57
369,Soe,ID,-9.86,124.28,82.38,60,65,0.65
370,Rusape,ZW,-18.53,32.13,60.8,95,100,2.82
371,Suntar,RU,62.14,117.63,-30.03,83,100,3.67
372,Neryungri,RU,56.67,124.65,-15.0,86,100,0.83
373,Lufilufi,WS,-13.87,-171.6,87.8,79,75,10.29
374,Kaili,ID,-3.46,120.21,77.18,80,97,2.86
375,Shintomi,JP,32.08,131.47,50.0,76,75,10.29
376,Union,US,40.63,-74.27,34.29,80,90,4.7
377,Klin,RU,56.33,36.73,12.2,78,0,13.42
378,Garzón,CO,2.2,-75.63,69.57,74,94,1.16
379,Pailón,BO,-17.65,-62.75,68.0,94,75,5.82
380,Cabo Rojo,PR,18.09,-67.15,74.95,94,49,1.99
381,Bathsheba,BB,13.22,-59.52,75.2,83,20,6.93
382,Tautira,PF,-17.73,-149.15,86.0,62,75,13.87
383,Nantucket,US,41.28,-70.1,37.4,93,90,9.17
384,Mitsamiouli,KM,-11.38,43.28,81.46,69,76,6.35
385,Paita,PE,-5.09,-81.11,67.68,84,100,11.1
386,Udachny,RU,66.42,112.4,-40.0,65,40,4.47
387,Port Elizabeth,ZA,-33.92,25.57,66.2,93,90,3.36
388,Zenzeli,RU,45.92,47.05,22.51,93,0,8.3
389,Hīrna,ET,9.22,41.1,54.32,50,89,2.24
390,Makkah al Mukarramah,SA,21.43,39.83,71.8,49,0,0.94
391,Alyangula,AU,-13.85,136.42,87.8,70,40,8.05
392,Ormara,PK,25.21,64.64,74.43,62,0,6.2
393,Kovdor,RU,67.57,30.48,24.1,96,83,12.26
394,Ducheng,CN,23.24,111.53,60.15,62,100,3.47
395,Hendrina,ZA,-26.16,29.72,64.53,86,9,1.81
396,Kushima,JP,31.46,131.23,47.84,76,75,10.29
397,São Filipe,CV,14.9,-24.5,74.95,72,100,9.73
398,Olinda,BR,-8.01,-34.86,78.8,75,85,10.8
399,Havre-St-Pierre,CA,50.23,-63.6,30.2,80,90,5.82
400,Alofi,NU,-19.06,-169.92,82.4,78,75,23.04
401,Zhigansk,RU,66.77,123.37,-38.51,81,32,1.97
402,Havøysund,NO,71.0,24.66,39.2,80,75,17.22
403,Buin,CL,-33.73,-70.75,72.97,25,0,17.22
404,Sorrento,IT,40.63,14.37,50.04,57,40,5.82
405,Awjilah,LY,29.11,21.29,57.7,38,0,12.33
406,Čačak,RS,43.89,20.35,35.6,100,0,2.24
407,Tabas,IR,33.6,56.92,41.0,64,9,2.24
408,Koslan,RU,63.46,48.9,19.08,90,96,7.87
409,Venice,US,27.1,-82.45,53.55,81,1,4.92
410,Forrest City,US,35.01,-90.79,53.62,62,0,3.36
411,Mildura,AU,-34.2,142.15,71.78,46,100,10.29
412,Miandrivazo,MG,-19.52,45.47,77.85,75,100,3.31
413,Kruisfontein,ZA,-34.0,24.73,63.0,96,100,1.01
414,Nova Vodolaha,UA,49.72,35.87,17.29,72,0,11.18
415,Chokurdakh,RU,70.63,147.92,-21.06,88,100,3.49
416,Dingle,PH,11.0,122.67,81.55,83,41,5.12
417,Koutiala,ML,12.39,-5.46,73.9,23,0,10.36
418,Chandler,US,33.31,-111.84,70.59,15,40,8.05
419,Plouzané,FR,48.38,-4.62,49.44,81,40,11.41
420,Hidalgo,MX,20.5,-99.0,54.63,77,0,4.56
421,Santa Cruz del Norte,CU,23.15,-81.92,60.76,77,20,5.82
422,Porto-Vecchio,FR,41.59,9.28,45.54,81,40,9.17
423,Imeni Poliny Osipenko,RU,52.42,136.49,9.23,94,99,1.63
424,Chapais,CA,49.78,-74.85,19.4,85,90,5.82
425,Kīhei,US,20.79,-156.47,79.18,48,40,10.29
426,Baní,DO,18.28,-70.33,75.16,77,15,3.51
427,Ténenkou,ML,14.46,-4.92,72.57,23,0,10.54
428,Lexington,US,37.99,-84.48,43.47,65,1,6.93
429,Jaqué,PA,7.52,-78.17,78.89,83,74,4.16
430,Bahía Solano,CO,6.23,-77.4,78.15,84,100,2.91
431,São José da Coroa Grande,BR,-8.9,-35.15,77.27,79,76,9.57
432,Ust'-Omchug,RU,61.15,149.63,-19.17,84,89,2.15
433,Kenai,US,60.55,-151.26,25.63,86,90,6.93
434,Umluj,SA,25.02,37.27,73.62,49,0,11.7
435,Beringovskiy,RU,63.05,179.32,21.02,95,84,2.71
436,Uthal,PK,25.81,66.62,66.25,54,0,2.48
437,Camaná,PE,-16.62,-72.71,66.09,75,62,5.99
438,Eyl,SO,7.98,49.82,74.35,73,0,14.23
439,Porto-Novo,BJ,6.5,2.6,80.6,94,20,10.29
440,Plyussa,RU,58.43,29.37,24.44,90,88,8.72
441,Camp Verde,US,34.56,-111.85,54.82,19,1,2.68
442,Tremedal,BR,-14.98,-41.41,68.85,87,48,1.52
443,Oktyabr'skiy,RU,54.48,53.47,8.56,91,0,4.54
444,Qaqortoq,GL,60.72,-46.03,30.2,30,0,21.92
445,El Salvador,SV,13.83,-88.92,74.07,64,0,11.41
446,Buraidah,SA,26.33,43.98,55.4,87,0,8.05
447,Illela,NG,13.73,5.3,76.17,18,4,9.46
448,Bongouanou,CI,6.65,-4.2,72.25,99,95,2.51
449,Ruska Poliana,UA,49.42,31.92,25.0,92,0,11.16
450,Soubre,CI,5.79,-6.61,72.86,96,79,2.48
451,Saluzzo,IT,44.65,7.49,36.82,100,76,8.05
452,Kasongo-Lunda,CD,-6.47,16.82,70.07,93,100,1.57
453,Luanda,AO,-8.84,13.23,77.0,83,40,4.7
454,Zelenoborsk,RU,61.47,64.03,15.91,96,5,6.44
455,Avera,US,33.19,-82.53,46.62,76,1,3.36
456,Japura,ID,-0.32,102.35,77.52,90,100,1.99
457,Esim,GH,4.87,-2.24,78.4,86,67,7.96
458,Arrondissement de Mont-de-Marsan,FR,44.0,-0.67,45.25,87,100,4.7
459,Katsuura,JP,35.13,140.3,47.77,93,75,8.05
460,Bulgan,MN,48.81,103.53,-0.08,82,0,3.71
461,Lázaro Cárdenas,MX,17.96,-102.2,78.15,80,0,6.02
462,Flin Flon,CA,54.77,-101.86,26.6,92,5,4.7
463,San Quintín,MX,30.48,-115.95,62.06,78,100,10.33
464,Lima Duarte,BR,-21.84,-43.79,66.47,95,100,1.07
465,Sisimiut,GL,66.94,-53.67,21.81,90,52,10.29
466,Santa Maria,BR,-29.68,-53.81,71.6,73,0,2.24
467,Vila,PT,42.03,-8.16,48.99,96,100,7.0
468,Dalgopol,BG,43.05,27.35,50.85,100,90,16.11
469,Novobelokatay,RU,55.71,58.95,5.45,93,73,3.56
470,Kumul,CN,42.8,93.45,15.06,89,0,0.63
471,Gilgit,PK,35.92,74.31,37.85,65,49,2.64
472,Saint-Augustin,CA,51.23,-58.65,34.09,90,100,7.0
473,Slidell,US,30.28,-89.78,53.62,76,1,5.23
474,Granard,IE,53.77,-7.5,43.52,98,100,3.31
475,Port Augusta,AU,-32.5,137.77,75.13,60,100,14.99
476,Wanxian,CN,30.8,108.39,49.15,67,22,1.45
477,Sabana Grande de Boyá,DO,18.95,-69.79,75.94,88,40,1.79
478,Coyhaique,CL,-45.58,-72.07,55.4,62,75,5.82
479,Tavares,US,28.8,-81.73,50.34,71,1,3.36
480,Ketchikan,US,55.34,-131.65,39.2,93,40,6.93
481,Nabire,ID,-3.37,135.48,83.75,67,86,1.32
482,Myaundzha,RU,63.05,147.19,-29.06,82,100,1.28
483,Saint-Pierre,RE,-21.34,55.48,68.99,78,0,8.05
484,Vestmannaeyjar,IS,63.44,-20.27,42.93,87,100,17.52
485,Rychnov nad Kněžnou,CZ,50.16,16.27,38.44,85,99,2.73
486,Bariloche,AR,-41.15,-71.31,62.6,33,0,12.75
487,Amapá,BR,1.0,-52.0,72.61,96,14,3.09
488,Sheltozero,RU,61.37,35.37,27.59,87,0,11.05
489,Novodugino,RU,55.63,34.28,16.83,93,0,7.78
490,Muros,ES,42.78,-9.06,58.55,94,100,1.99
491,Yarmouth,US,41.71,-70.23,33.71,86,90,8.95
492,Alvorada,BR,-12.48,-49.12,73.08,88,100,2.35
493,Binga,ZW,-17.62,27.34,73.31,86,94,4.54
494,Igarassu,BR,-7.83,-34.91,77.56,77,87,7.72
495,Sankt Pölten,AT,48.2,15.63,34.3,83,100,8.01
496,Aykhal,RU,66.0,111.5,-40.0,65,40,4.47
497,Vanimo,PG,-2.67,141.3,86.92,61,72,2.91
498,Kendari,ID,-3.94,122.5,86.14,66,100,3.33
499,Selenginsk,RU,52.01,106.86,6.8,65,40,11.18
500,High Prairie,CA,55.43,-116.49,32.0,94,44,8.05
501,Hervey Bay,AU,-25.3,152.85,77.7,56,12,9.86
502,Porto Santo,PT,33.07,-16.34,60.8,77,20,9.17
503,Altamont,US,42.21,-121.74,40.95,56,1,9.17
504,Mehamn,NO,71.04,27.85,37.4,90,75,16.11
505,Peniche,PT,39.36,-9.38,59.36,91,100,15.99
506,Port Blair,IN,11.67,92.75,79.54,70,99,8.03
507,Dāmghān,IR,36.17,54.35,34.93,83,5,1.52
508,Ilebo,CD,-4.32,20.58,69.58,94,100,0.78
509,Lethem,GY,3.38,-59.8,77.79,77,4,7.18
510,Ngunguru,NZ,-35.62,174.5,77.0,61,0,15.99
511,Kieta,PG,-6.22,155.63,84.79,75,99,7.72
512,Ialibu,PG,-6.28,143.99,68.0,77,75,3.36
513,Mushie,CD,-3.02,16.9,70.75,91,99,2.89
514,Arcata,US,40.87,-124.08,53.28,71,1,11.41
515,Bilibino,RU,68.05,166.44,-9.56,84,60,4.12
516,Dinklage,DE,52.65,8.12,34.57,93,100,4.18
517,Escanaba,US,45.75,-87.06,33.24,74,1,5.82
518,Gravdal,NO,68.12,13.5,37.35,94,100,17.02
519,Neutraubling,DE,48.98,12.2,32.4,95,90,1.72
520,Laibin,CN,23.7,109.27,57.58,61,66,10.27
521,Aswān,EG,24.09,32.91,64.89,44,0,7.78
522,Salalah,OM,17.02,54.09,73.4,25,0,6.93
523,Brookfield,US,43.06,-88.11,39.07,60,1,5.82
524,Korla,CN,41.76,86.15,21.29,91,0,2.62
525,Bonavista,CA,48.65,-53.11,34.05,90,86,5.82
526,Biak,ID,-0.91,122.88,82.74,74,40,6.78
527,Ailigandí,PA,9.23,-78.02,79.25,85,100,11.48
528,Bemidji,US,47.47,-94.88,32.36,90,75,3.4
529,Kibala,TD,9.11,18.35,73.85,22,100,3.27
530,Ugoofaaru,MV,5.67,73.0,82.04,77,0,13.29
531,Klaksvík,FO,62.23,-6.59,44.6,93,100,24.16
532,Alekseyevsk,RU,57.84,108.35,-11.33,86,100,8.03
533,Thabazimbi,ZA,-24.59,27.41,71.28,61,0,6.38
534,Puerto Madero,MX,14.72,-92.42,80.6,88,40,3.36
